comuna_nombre,fecha,fk_comuna,fk_localidad,fk_region,funcionamiento_dia,funcionamiento_hora_apertura,funcionamiento_hora_cierre,local_direccion,local_id,local_lat,local_lng,local_nombre,local_telefono,localidad_nombre
LA CALERA,2021-06-28,56,12,6,lunes,09:00:00,08:59:00,J J PEREZ 199,5,-32.7882065329844,-71.189446195146,AHUMADA,+563326316573,LA CALERA
QUILLOTA,2021-06-28,69,32,6,lunes,09:00:00,08:59:00,CHACABUCO 281,17,-32.878335491624,-71.246141889165,CRUZ VERDE,+56332319578,QUILLOTA
LA CRUZ,2021-06-28,57,13,6,lunes,09:00:00,21:00:00,"21 DE MAYO 5628, LOCAL 1, LA CRUZ",37,-32.8235326035501,-71.2260811844591,SALCOBRAND,+56332320677,LA CRUZ
QUILPUE,2021-06-28,70,33,6,lunes,09:00:00,08:59:00,DIEGO PORTALES N° 802,43,-33.0469493869154,-71.4416812900202,AHUMADA,+563219,QUILPUE
QUILPUE,2021-06-28,70,54,6,lunes,08:30:00,19:00:00,LAS BARRANCAS 2491 L 3C Y  4D,59,-33.0661975068523,-71.4228941507292,AHUMADA,+5632232740640,LOS PINOS
QUINTERO,2021-06-28,71,34,6,lunes,09:00:00,08:59:00,PILOTO ALCAYAGA  N° 1919,65,-32.7856824763479,-71.526446430538,ECONOMICA,+56322932576,QUINTERO
VILLA ALEMANA,2021-06-28,79,40,6,lunes,09:00:00,08:59:00,AV. VALPARAÍSO N° 664,75,-33.0442018537089,-71.3733634400135,CRUZ VERDE,+56322957566,VILLA ALEMANA
VIÑA DEL MAR,2021-06-28,80,28,6,lunes,09:00:00,23:00:00,QUILLOTA N° 493,98,-33.0181329872639,-71.5466519206006,CRUZ VERDE,+56322680656,PLAN DE VIÑA
VIÑA DEL MAR,2021-06-28,80,35,6,lunes,09:00:00,21:00:00,J.M.CARRERA  N° 201,100,-33.0275549545313,-71.5734684105632,CRUZ VERDE,+56322620782,RECREO
VALPARAISO,2021-06-28,78,2,6,lunes,09:00:00,23:00:00,CONDELL Nº1509  LOCAL  2,164,-33.046159219172,-71.6213619359347,DR. SIMI,+56322157243,PLAN VALPARAISO
ALGARROBO,2021-06-28,45,3,6,lunes,09:00:00,01:00:00,AV. CARLOS ALESSANDRI Nº 1915 - 1923,195,-33.3610508004278,-71.6658821617468,CRUZ VERDE,+56352489065,ALGARROBO
EL TABO,2021-06-28,52,50,6,lunes,09:00:00,21:00:00,ERRAZURIZ Nº 182 LAS CRUCES,205,-33.499676,-71.616060,LAS CRUCES,+56352431224,El TABO
CARTAGENA,2021-06-28,48,5,6,lunes,09:00:00,01:00:00,ALMIRANTE LATORRE Nº80,206,-33.5469589215463,-71.602734921825,CARTAGENA,+56352450374,CARTAGENA
ISLA DE PASCUA,2021-06-28,54,11,6,lunes,09:00:00,21:00:00,ATAMU TEKENA S/N,228,-27.1497101, -109.4290893  ,CRUZ VERDE,+56322551541,ISLA DE PASCUA
CATEMU,2021-06-28,49,7,6,lunes,09:00:00,21:00:00,BORJA GARCIA HUIDOBRO N° 051,249,-32.7780107476414,-70.9623902381342,FARMAVIDA,+56342631035,CATEMU
LA LIGUA,2021-06-28,58,14,6,lunes,09:00:00,08:59:00,ORTIZ DE ROZAS N° 498,254,-32.4488813729109,-71.231006201479,ECOFARMACIAS,"+56713253, 3",LA LIGUA
LOS ANDES,2021-06-28,61,20,6,lunes,09:00:00,08:59:00,MAIPU N° 302,259,-32.833526665096,-70.5973027730903,CRUZ VERDE,+56342402955,LOS ANDES
PAPUDO,2021-06-28,65,25,6,lunes,09:00:00,21:00:00,CHORRILLOS N°93,272,-32.5072043868488,-71.4471110053879,SAN JOSE PAPUDO,+5633+56999987723,PAPUDO
PUTAENDO,2021-06-28,68,31,6,lunes,09:00:00,21:00:00,A. CAMUS  90,274,-32.6258032740768,-70.7168742510353,NUEVA ANTONIO,+56342501989,PUTAENDO
SAN FELIPE,2021-06-28,75,37,6,lunes,09:00:00,08:59:00,"PORTUS Nº1194, LOCAL 2",281,-32.7504946484281,-70.7239589333067,NUEVA MODERNA,+56511659,SAN FELIPE
CONCON,2021-06-28,50,8,6,lunes,09:00:00,08:59:00,BORGOÑO 25180,334,-32.9202235851259,-71.5099412409831,MONTEMAR,+56322813051,CONCON
VIÑA DEL MAR,2021-06-28,80,10,6,lunes,09:00:00,21:00:00,AV. GOMEZ CARREÑO 3601 L-5,494,-32.9889860065243,-71.5251538954139,DR. SIMI,+56322833952,GOMEZ CARREÑO - REÑACA ALTO
BUIN,2021-06-28,83,102,7,lunes,08:00:00,07:59:00,CAMINO LONGITUDINAL SUR  4251. L-1. LINDEROS,762,-33.776768,-70.744247,SUIZA,+560287458564,BUIN
CALERA DE TANGO,2021-06-28,84,103,7,lunes,09:00:00,21:00:00,CALERA DE TANGO 593-B. PARADERO 9. LOCAL 3,766,-33.629789,-70.762771,CALERA DE TANGO,+560228551067,CALERA DE TANGO
CERRILLOS,2021-06-28,85,104,7,lunes,09:00:00,21:00:00,AMERICO VESPUCIO 2500. INTERIOR LIDER,771,-33.518821,-70.707453,AHUMADA,+560225397251,CERRILLOS
COLINA,2021-06-28,87,106,7,lunes,08:00:00,07:59:00,CARRETERA GENERAL SAN MARTIN 071. L-A,808,-33.204707,-70.675653,SAN MARTIN,+560228441341,COLINA
CONCHALI,2021-06-28,88,107,7,lunes,09:00:00,21:00:00,CARDENAL JOSE MARIA CARO 1771. INTERIOR SANTA ISABEL,817,-33.373601,-70.681658,CRUZ VERDE,+560226230404,CONCHALI
CURACAVI,2021-06-28,89,108,7,lunes,09:00:00,21:00:00,AMBROSIO O'HIGGINS   1793,830,-33.403179,-71.131006,ESMERALDA,+560228353335,CURACAVI
ESTACION CENTRAL,2021-06-28,92,111,7,lunes,08:00:00,07:59:00,AV. GLADYS MARIN MILLIE 6997,874,-33.467524,-70.730906,ESPOZ,+5602228701938,ESTACION CENTRAL
LA GRANJA,2021-06-28,98,117,7,lunes,09:00:00,21:00:00,AV. LA SERENA 10297,1019,-33.550386,-70.617838,CRUZ VERDE,+560225469490,LA GRANJA
LA PINTANA,2021-06-28,99,118,7,lunes,09:00:00,21:00:00,BERNARDINO PARADA 0726,1030,-33.577688,-70.65703,FARMAVECINA,+560225362187,LA PINTANA
LAMPA,2021-06-28,101,120,7,lunes,09:00:00,21:00:00,LOS HALCONES 2180,1064,-33.294326,-70.867519,SU FARMACIA,+560222587224,LAMPA
LO BARNECHEA,2021-06-28,103,122,7,lunes,08:00:00,07:59:00,AV. LA DEHESA 1445. INTERIOR PORTAL LA DEHESA,1157,-33.358348,-70.517145,SALCOBRAND,+560222160380,LO BARNECHEA
PADRE HURTADO,2021-06-28,111,130,7,lunes,09:00:00,21:00:00,SEGUNDA AVENIDA 749,1360,-33.562008,-70.795020,LOS MAQUIS,+560228114327,PADRE HURTADO
PEDRO AGUIRRE CERDA,2021-06-28,113,132,7,lunes,09:00:00,21:00:00,CERRILLOS 4030,1375,-33.481706,-70.685762,FARMAMEDDICA,+560226830524,PEDRO AGUIRRE CERDA
PUDAHUEL,2021-06-28,118,137,7,lunes,08:00:00,07:59:00,LAGUNA SUR 8405 - C,1532,-33.460071,-70.751806,TORRES,+560227492529,PUDAHUEL
PUENTE ALTO,2021-06-28,119,378,7,lunes,08:00:00,07:59:00,SAN PEDRO 848,1585,-33.623362,-70.584520,FENIX,+560228509488,PUENTE ALTO SUR
SAN MIGUEL,2021-06-28,127,146,7,lunes,08:00:00,07:59:00,GRAN AVENIDA JOSE MIGUEL CARRERA 5001 PARADERO 11,1747,-33.499427,-70.653833,AHUMADA,+560226313737,SAN MIGUEL
ARAUCO,2021-06-28,200,219,10,lunes,08:00:00,23:59:00,CAUPOLICÁN 512-A,2271,-37.2469036,-73.31810659999996,FARMAX,+56412183291,ARAUCO
BULNES,2021-06-28,201,220,16,lunes,08:00:00,23:59:00,CARLOS PALACIOS N°394,2275,-36.7433007289,-72.2979746995,ITALIA,+56422631272,BULNES
CAÑETE,2021-06-28,203,222,10,lunes,08:00:00,23:59:00,CONDELL 175,2280,-37.80582,-73.391974,CRUZ VERDE,+56412619817,CAÑETE LOCALIDAD 1
CHIGUAYANTE,2021-06-28,204,223,10,lunes,09:00:00,08:59:00,M. RODRIGUEZ 925,2286,-36.9296186186,-73.0232187786,CRUZ VERDE,+56412364476,CHIGUAYANTE LOCALIDAD 1
COELEMU,2021-06-28,208,227,16,lunes,08:00:00,23:59:00,MATTA N°600,2322,-36.487656996,-72.7045444514,SOMOS FARMACIA,+56422511045,COELEMU
CONCEPCION,2021-06-28,210,375,10,lunes,08:00:00,23:59:00,BARROS ARANA 599,2339,-36.8268765246,-73.0514960447,CRUZ VERDE,+56412252781,CONCEPCION CENTRO
TOME,2021-06-28,246,265,10,lunes,09:00:00,08:59:00,EGAÑA 1097 LOCAL 1,2369,-36.617692,-72.956681,TOME,+56412382466,TOME
CORONEL,2021-06-28,212,231,10,lunes,09:00:00,08:59:00,MANUEL MONTT 541,2389,-37.0278607106,-73.1466452867,CRUZ VERDE,+56412711554,CORONEL CENTRO
LEBU,2021-06-28,218,237,10,lunes,08:00:00,23:59:00,RIOSECO Nº 267,2409,-37.6082312686,-73.652900214,DR. SIMI,+56412511498,LEBU LOCALIDAD 1
LOTA,2021-06-28,221,240,10,lunes,09:00:00,08:59:00,PEDRO AGUIRRE CERDA 617,2416,-37.0921688828,-73.1570621122,DR. SIMI,+56412878672,LOTA
PENCO,2021-06-28,227,246,10,lunes,09:00:00,08:59:00,FREIRE 500,2419,-36.7375678733,-72.9953105082,CRUZ VERDE,+56412454189,PENCO
QUILLON,2021-06-28,232,251,16,lunes,08:00:00,23:59:00,AVDA. CAYUMANQUI N°407,2426,-36.7428280388855,-72.4740164764267,QUILLÓN,+56422581052,QUILLON
QUIRIHUE,2021-06-28,233,252,16,lunes,08:00:00,23:59:00,AVDA. ARTURO PRAT N°477 L-15,2429,-36.2831617976,-72.5451670814,FARMAX,+56422531296,QUIRIHUE
SAN CARLOS,2021-06-28,235,254,16,lunes,09:00:00,08:59:00,INDEPENDENCIA N°743,2432,-36.4234166666667,-71.9567833333333,CENTRO,+56422412142,SAN CARLOS - LOCALIDAD 1
TALCAHUANO,2021-06-28,244,263,10,lunes,09:00:00,08:59:00,"LAS AMAPOLAS 68, LOS CÓNDORES",2467,-36.7577089238,-73.092655207,REDFARMA,+56412582023,TALCAHUANO-HUALPEN CENTRO
YUNGAY,2021-06-28,250,269,16,lunes,08:00:00,23:59:00,ESMERALDA N°204,2481,-37.1201299259,-72.0165080757,FARMA,+56422680060,YUNGAY
YUMBEL,2021-06-28,249,268,10,lunes,08:00:00,23:59:00,O'HIGGINS 763-A,2505,-37.0989515256106,-72.5615016024431,SAN SEBASTIAN,+56432439086,YUMBEL - LOCALIDAD 1
LAJA,2021-06-28,217,236,10,lunes,08:00:00,23:59:00,BALMACEDA 151,2512,-37.2818087182585,-72.7139151022218,DR. SIMI,+5643469688,LAJA
NACIMIENTO,2021-06-28,223,242,10,lunes,08:00:00,23:59:00,SAN MARTIN 423,2521,-37.5013617584081,-72.6710203395715,COMUNITARIA CENTRAL,+56432519918,NACIMIENTO
MULCHEN,2021-06-28,222,241,10,lunes,08:00:00,23:59:00,VILLAGRAN 601,2549,-37.72186392345361,-72.24302617486876,RIOS,+56964926074,MULCHEN - LOCALIDAD 1
PUERTO MONTT,2021-06-28,311,382,13,lunes,09:00:00,21:00:00,AVDA. PRESIDENTE IBAÑEZ 173 LOCAL 1,3114,-41.4617201,-72.94411550000001,FARMACIAS CRUZ VERDE,+56652351537,SECTOR CUARTA TERRAZA
CALDERA,2021-06-28,22,78,4,lunes,09:00:00,08:59:00,COUSIÑO  N° 325,3124,-27.0676726,-70.82156559999999,FARMACIA LA BOTIKA,+5652,CALDERA
COPIAPO,2021-06-28,24,80,4,lunes,09:00:00,08:59:00,AVENIDA  LOS CARRERA N° 3356,3130,-27.386957,-70.3054267,FARMACIA CRUZ VERDE,+56522222482,COPIAPO
VALLENAR,2021-06-28,29,85,4,lunes,09:00:00,08:59:00,ARTURO PRAT N° 1040,3132,-28.5766603,-70.75910019999998,FARMACIA CRUZ VERDE,+565122618851,VALLENAR
DIEGO DE ALMAGRO,2021-06-28,25,81,4,lunes,10:00:00,22:00:00,JUAN MARTINEZ  N°1107,3155,-26.3913476,-70.04514719999997,FARMACIA SAN MARTIN,+56522449032,DIEGO DE ALMAGRO
CHAÑARAL,2021-06-28,23,79,4,lunes,09:00:00,08:59:00,RAUL BARRIONUEVO  N° 156,3159,-26.33559270469468,-70.61389949814759,FARMACIA PAEZ,+56522481455,CHAÑARAL
FUTRONO,2021-06-28,283,302,12,lunes,09:00:00,08:59:00,BALMACEDA Nº 500,3168,-40.1316666,-72.3865277777,ALBORADA,+56639481390,FUTRONO
PAILLACO,2021-06-28,292,311,12,lunes,09:00:00,08:59:00,O´HIGGINS Nº 238,3174,-40.071194,-72.87433,DEL DR. SIMI,+5663,PAILLACO
RIO BUENO,2021-06-28,293,312,12,lunes,09:00:00,08:59:00,PEDRO LAGOS Nº 601,3177,-40.33425,-72.95463888888,REDFARMA,+56632344729,RIO BUENO
PANGUIPULLI,2021-06-28,291,310,12,lunes,09:00:00,08:59:00,MARTINEZ DE ROSAS Nº 690,3184,-39.642530555556,-72.3314722222222,CRUZ VERDE,+56632530441,PANGUIPULLI
LA UNION,2021-06-28,284,303,12,lunes,09:00:00,08:59:00,ESMERALDA Nº 731,3195,-40.2945,-73.081,SALCOBRAND,+56642426153,LA UNION
VALDIVIA,2021-06-28,290,309,12,lunes,09:00:00,08:59:00,RAMÓN PICARTE Nº 343,3202,-39.8142749,-73.2449441,CRUZ VERDE,+56632344609,VALDIVIA
TEMUCO,2021-06-28,275,294,11,lunes,09:00:00,08:59:00,MANUEL MONTT 701,3214,-38.7381759,-72.59174769999998,FARMACIA SALCOBRAND,+56452237321,TEMUCO
CURANILAHUE,2021-06-28,213,232,10,lunes,08:00:00,23:59:00,RIQUELME N°751,3231,-37.4756903,-73.347294,PAGUE MENOS,+560,CURANILAHUE LOCALIDAD 1
QUELLON,2021-06-28,318,337,13,lunes,09:00:00,08:59:00,LADRILLEROS 399,3239,-43.1175146,-73.61678059999997,FARMACIA CRUZ VERDE,+560987,QUELLON
QUINCHAO,2021-06-28,320,339,13,lunes,09:00:00,08:59:00,"ARTURO PRAT 46, ACHAO",3243,-42.472032,-73.48977200000002,FARMACIA REDFARMA 104,+56652661101,QUINCHAO
DALCAHUE,2021-06-28,301,320,13,lunes,09:00:00,08:59:00,RAMÓN FREIRE 506,3244,-42.3788566,-73.6499556,FARMACIA USYDAL,+56652641727,DALCAHUE
ANCUD,2021-06-28,294,313,13,lunes,09:00:00,08:59:00,ELEUTERIO RAMÍREZ Nº 330,3257,-41.8695296,-73.8258669,FARMACIA DR SIMI,+56652621528,ANCUD
CASTRO,2021-06-28,296,315,13,lunes,09:00:00,08:59:00,SAN MARTIN 369,3265,-42.4821281,-73.76365099999998,FARMACIA SALCOBRAND,+56652533589,CASTRO
TOCOPILLA,2021-06-28,20,76,3,lunes,09:00:00,08:59:00,21 DE MAYO Nº 1685-1687,3283,-22.085578,-70.19300599999997,FARMACIA CRUZ VERDE,+56552815523,TOCOPILLA
PUERTO MONTT,2021-06-28,311,384,13,lunes,09:00:00,08:59:00,ANTONIO VARAS 875,3285,-41.4741711,-72.9472571,FARMACIA DEL DR. SIMI,+5665652313006,SECTOR CENTRO
MEJILLONES,2021-06-28,15,71,3,lunes,09:00:00,08:59:00,ALMIRANTE LATORRE N° 637,3294,-23.10000589138066,-70.44820569455624,FARMACIA FIGUESAN,+56552622038,MEJILLONES
PUERTO VARAS,2021-06-28,313,385,13,lunes,09:00:00,21:00:00,"ANDRÉS BELLO Nº304, LOCAL 1 PUERTO VARAS",3300,-41.3229566,-72.98449119999998,FARMACIA PSUYING TANG,+56652511567,SECTOR PERIFERIA
PUERTO VARAS,2021-06-28,313,332,13,lunes,09:00:00,08:59:00,"AVDA. DEL SALVADOR Nº 401 LOCAL 1 , PUERTO VARAS",3301,-41.317908,-72.9850495,FARMACIAS CRUZ VERDE,+56022694400,SECTOR CENTRO
SALAMANCA,2021-06-28,43,99,5,lunes,09:00:00,08:59:00,MANUEL BULNES 498 LOCAL 4,3315,-31.781396353687686,-70.96444150097341,CHOAPA,+56532551067,SALAMANCA
LOS MUERMOS,2021-06-28,307,326,13,lunes,09:00:00,08:59:00,ANTONIO VARAS 402 LOS MUERMOS,3322,-41.39538690384782,-73.4652328491211,FARMACIA GALENO,+56652211473,LOS MUERMOS
OSORNO,2021-06-28,309,328,13,lunes,09:00:00,08:59:00,ZENTENO 1530,3344,-40.583654,-73.1222075,FARMACIA SALCOBRAND,+56642253120,SECTOR CENTRO
LLANQUIHUE,2021-06-28,306,325,13,lunes,09:00:00,08:59:00,BAQUEDANO Nº 506  LLANQUIHUE,3351,-41.2546828,-73.0061713,FARMACIA CRUZ VERDE,+56652242666,LLANQUIHUE
POZO ALMONTE,2021-06-28,11,67,2,lunes,09:00:00,22:00:00,"COMERCIO 307, POZO ALMONTE, TARAPACA, CHILE",3356,-20.259118909311535,-69.78562562698357,FARMACIA JERUSALEN,+56572751030,POZO ALMONTE
COYHAIQUE,2021-06-28,328,347,14,lunes,09:00:00,08:59:00,ARTURO PRAT N° 307. COYHAIQUE,3367,-45.5722174,-72.070786,FARMACIAS CRUZ VERDE,+56672254362,COYHAIQUE
PICA,2021-06-28,10,66,2,lunes,09:00:00,21:00:00,BALMACEDA 272,3379,-20.4906225,-69.32795763,JERUSALEM,+56954109335,PICA
FRUTILLAR,2021-06-28,303,322,13,lunes,09:00:00,08:59:00,CARLOS RICHTER 162 FRUTILLAR,3383,-41.126514081028006,-73.05891841650009,FARMACIA FRUTILLAR,+56652421334,FRUTILLAR
ALTO HOSPICIO,2021-06-28,5,61,2,lunes,08:00:00,23:59:00,LA PAMPA 3779 LOCAL 3-4 SECTOR A 1,3418,-20.2781833,-70.09883009,ZONA VITAL,+56572730275,ALTO HOSPICIO
PURRANQUE,2021-06-28,315,334,13,lunes,09:00:00,08:59:00,PEDRO MONTT 296,3434,-40.912669,-73.159155,FARMACIA DROGUETT,+56642651296,PURRANQUE
PUNTA ARENAS,2021-06-28,339,358,15,lunes,09:00:00,08:59:00,AVENIDA ESPAÑA Nº01377-A,3446,-53.13920233408972,-70.8924150466919,AHUMADA,+560226313241,PUNTA ARENAS
PUERTO NATALES,2021-06-28,338,357,15,lunes,08:00:00,23:59:00,BULNES Nª 599,3449,-51.7333,-72.50378,AHUMADA,+56612410771,PUERTO NATALES
CALAMA,2021-06-28,13,69,3,lunes,08:00:00,07:59:00,"VIVAR Nº 1902-1912, LOCAL 1051",3454,-22.4618494,-68.92462869999997,SALCOBRAND,+56552342823,CALAMA
PADRE LAS CASAS,2021-06-28,268,287,11,lunes,09:00:00,21:00:00,HUICHAHUE Nº260,3516,"","",FARMACIA FARMAX,+5602734474,PADRE LAS CASAS
TRAIGUEN,2021-06-28,278,297,11,lunes,09:00:00,08:59:00,SANTA CRUZ Nº 813,3542,-38.24953238121404,-72.66860685901645,FARMACIA SALCOBRAND,+56452869095,TRAIGUEN
CURACAUTIN,2021-06-28,255,274,11,lunes,09:00:00,08:59:00,OHIGGINS Nº 640,3545,-38.43785510795259,-71.8898533181382,FARMACIA DR. SIMI,+56452882640,CURACAUTIN
NUEVA IMPERIAL,2021-06-28,267,286,11,lunes,09:00:00,08:59:00,A. PRAT Nº 269,3547,-38.74448016051383,-72.95282530625155,FARMACIA CRUZ VERDE,+56452613008,NUEVA IMPERIAL
CARAHUE,2021-06-28,252,271,11,lunes,09:00:00,08:59:00,LAUTARO Nº 298,3549,-38.712308210701124,-73.16674910779568,FARMACHILE,+56452652091,CARAHUE
VILLARRICA,2021-06-28,281,300,11,lunes,09:00:00,08:59:00,CAMILO HENRIQUEZ Nº288 L. 05,3558,-39.280286857359265,-72.22533528220902,SALCOBRAND,+56452416754,VILLARRICA
LAUTARO,2021-06-28,261,280,11,lunes,09:00:00,08:59:00,OHIGGINS Nº 916,3567,-38.532894340929815,-72.43522591656341,F. OHIGGINS,+56452464600,LAUTARO
PITRUFQUEN,2021-06-28,270,289,11,lunes,09:00:00,08:59:00,AV. FCO. BILBAO Nº 496,3569,-38.98635010121116,-72.63823982972326,F. CRUZ VERDE,+56452392627,PITRUFQUEN
VICUÑA,2021-06-28,44,100,5,lunes,09:00:00,23:00:00,"ARTURO PRAT 182, VICUÑA",3585,-30.0348947,-70.71215159999997,CRUZ VERDE,+560,VICUÑA
ILLAPEL,2021-06-28,34,90,5,lunes,09:00:00,08:59:00,CONSTITUCIÓN 389,3610,-31.629804143118275,-71.16384296746384,DR SIMI,+56532525267,ILLAPEL
LOS VILOS,2021-06-28,37,93,5,lunes,09:00:00,23:00:00,CAUPOLICÁN 484,3620,-31.91039926039233,-71.51027991534426,EL INDIECITO,+56532542595,LOS VILOS
OVALLE,2021-06-28,39,95,5,lunes,09:00:00,08:59:00,VICUÑA MACKENNA 184,3632,-30.6052776,-71.20723759999998,CRUZ VERDE,+56,OVALLE
GRANEROS,2021-06-28,142,161,8,lunes,09:00:00,23:59:00,AVENIDA LA COMPAÑÍA N° 028,3694,-34.068042,-70.725371,LA COMPAÑÍA,+56722471434,GRANEROS
PERALILLO,2021-06-28,155,174,8,lunes,08:00:00,23:59:00,AVENIDA ERRÁZURIZ N° 368,3700,-34.47992125533133,-71.47913727110284,PERALILLO,+56722861335,PERALILLO
PICHIDEGUA,2021-06-28,157,176,8,lunes,08:00:00,23:59:00,INDEPENDENCIA N° 562,3701,-34.35903622934217,-71.28249770052491,CUARTOCENTENARIO,+56722591329,PICHIDEGUA
DOÑIHUE,2021-06-28,141,160,8,lunes,10:00:00,20:00:00,DELFÍN CARVALLO N° 440-A,3706,-34.226307107776115,-70.96454438465577,LOURDES,+56722462617,DOÑIHUE
MARCHIGUE,2021-06-28,149,168,8,lunes,09:00:00,19:00:00,ARTURO PRAT N° 487,3708,-34.39533080152805,-71.62157200000001,FLORES,+56722831234,MARCHIGUE
NANCAGUA,2021-06-28,150,169,8,lunes,08:00:00,23:59:00,ARMANDO JARAMILLO N° 161,3710,-34.65131963151511,-71.20469064934707,PRINCIPAL,+56722859463,NANCAGUA
NAVIDAD,2021-06-28,151,170,8,lunes,09:00:00,19:00:00,JUAN MONTES ESQUINA PROGRESO S/N,3711,-33.959395,-71.829519,EKONOFARMACIA II,+567289077447,NAVIDAD
REQUINOA,2021-06-28,164,183,8,lunes,08:00:00,23:59:00,MURIALDO N° 46-A,3718,-34.298391712005724,-70.82114815041507,MAGISTRAL,+56722263645,REQUINOA
SAN FERNANDO,2021-06-28,165,184,8,lunes,09:00:00,08:59:00,MONSEÑOR LARRAÍN N° 1499,3719,-34.57369109125026,-70.99489553508346,FARMACIA FARMAS,+56722718696,SAN FERNANDO
PEUMO,2021-06-28,156,175,8,lunes,09:00:00,22:00:00,SARMIENTO N° 378,3732,-34.39270923444678,-71.16894174337767,POSTO VERDE,+56722561521,PEUMO
MACHALI,2021-06-28,147,166,8,lunes,09:00:00,23:59:00,"ARTURO PRAT N° 116, LOCAL 101",3735,-34.17880030615925,-70.65267407567137,MACHALÍ,+56722,MACHALI
RANCAGUA,2021-06-28,162,181,8,lunes,09:00:00,23:59:00,GERMÁN RIESCO N° 314,3744,-34.17048870687475,-70.73949107672115,SIBONAT,+56722241194,RANCAGUA
PICHILEMU,2021-06-28,158,177,8,lunes,08:00:00,23:59:00,ANIBAL PINTO N° 246-A,3762,-34.387368449712255,-72.00575477196656,POSTO VERDE,+56722842602,PICHILEMU
RENGO,2021-06-28,163,182,8,lunes,09:00:00,08:59:00,ARTURO PRAT N° 206-B,3764,-34.407041051957094,-70.8599258542074,DR. SIMI,+56722585739,RENGO
SANTA CRUZ,2021-06-28,168,187,8,lunes,09:00:00,08:59:00,PLAZA DE ARMAS 98,3777,-34.64054635232659,-71.36640495172588,FARMACIA CRUZ VERDE,+56722824420,SANTA CRUZ
RETIRO,2021-06-28,187,206,9,lunes,09:00:00,23:59:00,ERRAZURIZ N°24,3813,-36.0461845,-71.7561264,FARMACIA SAN LUIS,+56,RETIRO
LONGAVI,2021-06-28,179,198,9,lunes,09:00:00,23:59:00,1 NORTE N° 201,3815,-35.9658699,-71.6838455,FARMACIA EL CARMEN,+56,LONGAVI
HUALAÑE,2021-06-28,176,195,9,lunes,09:00:00,23:59:00,ARTURO PRAT N° 286,3818,-34.976145,-71.803193,FARMACIA HUALAÑÉ,+560,HUALAÑE
TENO,2021-06-28,195,214,9,lunes,09:00:00,23:59:00,AVDA. COMALLE N°147-B,3819,-34.8699799,-71.1616898,FARMACIA SAN FRANCISCO,+56,TENO
SAN JAVIER,2021-06-28,192,211,9,lunes,09:00:00,01:00:00,ARTURO PRAT N° 2464,3833,-35.5951843,-71.7320175,FARMACIA GAETE,+56,SAN JAVIER
PARRAL,2021-06-28,182,201,9,lunes,09:00:00,01:00:00,IGUALDAD N° 689-C,3843,-36.144595,-71.827077,FARMACIA DR. SIMI,+560,PARRAL
CAUQUENES,2021-06-28,169,188,9,lunes,09:00:00,01:00:00,VICTORIA N° 501,3855,-35.967629,-72.317787,FARMACIA AHUMADA,+560,CAUQUENES
SAN FRANCISCO DE MOSTAZAL,2021-06-28,166,185,8,lunes,09:00:00,08:59:00,INDEPENDENCIA N° 481,3874,-33.98085148679584,-70.71256891726279,FARMACIA NUEVA PROGRESO,+5672722491117,SAN FRANCISCO DE MOSTAZAL
CURICO,2021-06-28,174,193,9,lunes,09:00:00,08:59:00,PEÑA N° 707,3902,-34.98381683,-71.24171071,FARMACIA DR. SIMI,+56,CURICO CENTRO
OLMUE,2021-06-28,63,24,6,lunes,09:00:00,21:00:00,DIEGO PORTALES Nº 2090,3979,-32.9964333131758,-71.1865612917775,SALCOBRAND,+563264079001,OLMUE
RECOLETA,2021-06-28,122,141,7,lunes,08:00:00,07:59:00,A. AMERICO VESPUCIO 680. LOCAL 01. INTERIOR STRIP CENTER,3987,-33.380121,-70.647222,CRUZ VERDE,+560226944000,RECOLETA
PAINE,2021-06-28,112,131,7,lunes,09:00:00,21:00:00,DIEGO PORTALES 58. LOTE 2. LOCALIDAD DE HOSPITAL,3998,-33.867351,-70.747239,HYGEIA,+56,PAINE
LAS CABRAS,2021-06-28,144,163,8,lunes,08:00:00,23:59:00,"GRAL. JOSE MIGUEL CARRERA 460, LAS CABRAS",4034,-34.29094382283825,-71.30895728711988,DR. SIMI,+56722501437,LAS CABRAS
AYSEN,2021-06-28,324,343,14,lunes,09:00:00,08:59:00,SARGENTO ALDEA 1070 PUERTO AYSEN,4070,-45.40438450000001,-72.6946926,FARMACIA CRUZ VERDE,+56672330289,AYSEN
LLAY LLAY,2021-06-28,60,18,6,lunes,09:00:00,23:00:00,BALMACEDA N°393,4086,-32.8414462874015,-70.9560721264244,DR. SIMI,+56342612220,LLAY - LLAY
QUILICURA,2021-06-28,120,139,7,lunes,08:00:00,07:59:00,"ARANJUEZ PONIENTE 399, VALLE LO CAMPINO",4094,-33.3835543,-70.7238878,MACPHARMA,+560,QUILICURA
MARIQUINA,2021-06-28,289,308,12,lunes,09:00:00,08:59:00,MARIQUINA Nº 1295,4140,-39.538861,-72.962722,INTEGRAL,+5663,MARIQUINA
TALTAL,2021-06-28,19,75,3,lunes,09:00:00,08:59:00,"PRAT Nº 785, TALTAL",4381,-25.4054866,-70.4824276,FARMACIA FARMAPLUSS,+56552612199,TALTAL
TALCA,2021-06-28,194,417,9,lunes,09:00:00,01:00:00,2 NORTE Nº3230 LOCAL H (JUMBO NORTE),4414,-35.431786,-71.627517,FARMACIA CRUZ VERDE,+560,TALCA PERIMETRAL
ANTOFAGASTA,2021-06-28,12,68,3,lunes,08:00:00,07:59:00,M. A. MATTA Nº 2001,4419,-23.653621654618135,-70.40100779570082,FARMACIA SALCOBRAND,+560,ANTOFAGASTA CENTRO
LANCO,2021-06-28,286,305,12,lunes,09:00:00,08:59:00,NUEVA NORTE Nº 289,4422,-39.4538333,-72.763750,NUEVA NORTE,+56632441646,LANCO
ANTOFAGASTA,2021-06-28,12,391,3,lunes,09:00:00,21:00:00,SALVADOR REYES N°1145,4501,-23.6589785,-70.3985179,FARMACIA DERMAEXPRES,+56552768792,ANTOFAGASTA SUR
VILLA ALEMANA,2021-06-28,79,429,6,lunes,09:00:00,21:00:00,HUANHUALI 1331,4544,-33.058657929509,-71.3860337445243,BELLFARMA,+56323118844,HUANHUALI
LONCOCHE,2021-06-28,262,281,11,lunes,09:00:00,08:59:00,MANUEL BULNES  Nº 301 LONCOCHE,4590,-39.3681199,-72.63151270000003,MIFARMA,+56452638923,LONCOCHE
COLLIPULLI,2021-06-28,253,272,11,lunes,09:00:00,08:59:00,ALCAZAR Nº 1059 COLLIPULLI,4595,-37.9582687,-72.43211869999999,FARMACIA FIJA,+56452812942,COLLIPULLI
PUCHUNCAVI,2021-06-28,67,30,6,lunes,09:00:00,23:00:00,SAN ISIDRO GAETE 476 L-2  MAITENCILLO,4598,-32.6342666563976,-71.4240618277756,AHUMADA,+56022 6313795,PUCHUNCAVI
VALPARAISO,2021-06-28,78,27,6,lunes,09:00:00,23:00:00,"CALETERA 1502-1480 LC 03, RUTA 68 ,VALPARAISO",4656,-33.1215261067793,-71.5620742816259,AHUMADA,+560226313641,PLACILLA
CABILDO,2021-06-28,46,4,6,lunes,09:00:00,23:00:00,AV. HUMERES N°694,4658,-32.4265309900709,-71.0673825697176,DR SIMI,+560223673506,CABILDO
ANGOL,2021-06-28,251,270,11,lunes,09:00:00,08:59:00,LAUTARO N° 301 ANGOL,4676,-37.798409,-72.70941959999999,FARMACIA VITASUR,+5645945345421,ANGOL
ISLA DE MAIPO,2021-06-28,95,114,7,lunes,09:00:00,21:00:00,"EL MAITEN 300, LA ISLITA",4725,-33.7355797,-70.86203549999999,MOLYFARMA,+56,ISLA DE MAIPO
TALAGANTE,2021-06-28,133,152,7,lunes,08:00:00,07:59:00,"VEINTIUNO DE MAYO 1081, LOCAL 3",4808,-33.66713169999999,-70.9285577,CAROLINA,+56,TALAGANTE
SAN BERNARDO,2021-06-28,124,143,7,lunes,08:00:00,07:59:00,PORTALES 4290,4820,-33.6376671,-70.70774740000002,NOS,+56,SAN BERNARDO
VIÑA DEL MAR,2021-06-28,80,36,6,lunes,09:00:00,21:00:00,AV. EDMUNDO ELUCHANS 2030 L-2,4881,-32.9566609747513,-71.5437953063162,CRUZ VERDE,+560226944813,REÑACA
EL QUISCO,2021-06-28,51,9,6,lunes,09:00:00,01:00:00,ISIDORO DUBOURNAIS 320 EL QUISCO,4923,-33.3986803449635,-71.6943870710659,SANA SANA,+56352475022,EL QUISCO
QUILLOTA,2021-06-28,69,437,6,lunes,09:00:00,21:00:00,"AVENIDA RAMÓN FREIRE Nº 1551, LOCAL Nº 9",5040,-32.8980865719736,-71.246009861099,CRUZ VERDE,+56332293683,COPA DE AGUA
OSORNO,2021-06-28,309,386,13,lunes,09:00:00,21:00:00,"CHILLáN N° 637, RAHUE BAJO",5046,-40.57694018911748,-73.15527538413085,FARMACIA DR. SIMI LOCAL,+56642221290,SECTOR RAHUE
MELIPILLA,2021-06-28,109,128,7,lunes,08:00:00,07:59:00,ORTÚZAR 978,5101,-33.692401,-71.2157689,MAYORISTA,+56,MELIPILLA
QUILPUE,2021-06-28,70,439,6,lunes,09:00:00,21:00:00,MARGA MARGA 1650.,5110,-33.0565225519464,-71.4270512439142,MARGA MARGA,+56990107454,MARGA - MARGA
CHILLAN,2021-06-28,205,224,16,lunes,09:00:00,08:59:00,CINCO DE ABRIL N° 676,5111,-36.608668,-72.101664,BARRIO-SALUD,+560,CHILLAN - LOCALIDAD 1
LOS ALAMOS,2021-06-28,219,238,10,lunes,08:00:00,23:59:00,JUAN ANTONIO RIOS 43,5183,-37.626503,-73.458692,FARMACIA AHORRO MAS,+56,LOS ALAMOS
QUINTA DE TILCOCO,2021-06-28,161,180,8,lunes,09:00:00,23:59:00,"AVENIDA ARGOMEDO Nº 1753-A, QTA TILCOCO",5198,"","",FARMACIA GUTI,+56,QUINTA DE TILCOCO
LINARES,2021-06-28,178,197,9,lunes,09:00:00,08:59:00,MAIPÚ Nº419 LOCAL 8 LINARES,5238,-35.847470,-71.597559,FARMACIA PARADA,+560976978087,LINARES
CONSTITUCION,2021-06-28,172,191,9,lunes,09:00:00,08:59:00,"FREIRE Nº632, LOCAL Nº3 CONSTITUCIÓN",5242,-35.332346,-72.410727,FARMACIA SAN MIGUEL Nº2,+560228858494,CONSTITUCION
SAN ANTONIO,2021-06-28,73,19,6,lunes,09:00:00,08:59:00,"AV. BARROS LUCO 2058, SAN ANTONIO",5249,-33.5985683,-71.6132,PHARMA PUERTO,+5635632431689,SAN ANTONIO
GORBEA,2021-06-28,260,279,11,lunes,09:00:00,08:59:00,LORD COCHRANE N° 520,5396,-39.10065895491932,-72.67413139343262,FARMACIA DR. SIMI,+56452491029,GORBEA
CURICO,2021-06-28,174,418,9,lunes,09:00:00,01:00:00,AVENIDA RAUQUÉN Nº2118 LOCAL 2 Y 3 CURICÓ,5478,-34.960329,-71.199367,FARMACIA DR. SIMI,+560996996924,CURICO PERIMETRAL
CODEGUA,2021-06-28,138,157,8,lunes,11:00:00,20:00:00,"CALLE ANDES Nº 88, CODEGUA",5523,-34.0353709,-70.66730009999998,FARMACIA CODEGUA,+560,CODEGUA
PUENTE ALTO,2021-06-28,119,138,7,lunes,08:00:00,07:59:00,"AVENIDA MéXICO 2627, LOCAL 108",5524,"","",DR. SIMI,+56,PUENTE ALTO NORTE
SAN CLEMENTE,2021-06-28,191,210,9,lunes,09:00:00,01:00:00,AVENIDA HUAMACHUCO Nº632-A SAN CLEMENTE,5539,-35.539652,-71.485704,FARMACIA SAN DANIEL,+560974850405,SAN CLEMENTE
CHIMBARONGO,2021-06-28,137,156,8,lunes,09:00:00,08:59:00,"PISAGUA 20, CHIMBARONGO",5598,"","",DR. SIMI,+560,CHIMBARONGO
VILCUN,2021-06-28,280,299,11,lunes,09:00:00,08:59:00,ARTURO PRAT N° 394,5621,-38.6699481,-72.22441220000002,FARMACIA LAHUEN,+56984126521,VILCUN
LO PRADO,2021-06-28,105,124,7,lunes,08:00:00,07:59:00,AVENIDA SAN PABLO 6008,5652,"","",DAMYFAR,+56,LO PRADO
CABRERO,2021-06-28,202,221,10,lunes,08:00:00,23:59:00,RIO CLARO 199,5662,-37.034601,-72.401928,CRUZ VERDE,+5643,CABRERO
HUASCO,2021-06-28,27,83,4,lunes,09:00:00,21:00:00,RIQUELME N°  199-A,5722,"","",FARMACIA Y PERFUMERIA MI AROMA,+569993333530,HUASCO
IQUIQUE,2021-06-28,9,65,2,lunes,09:00:00,08:59:00,FILOMENA VALENZUELA N°295-C,5792,-20.236657,-70.149805,FARMACIA PENINSULA,+56,IQUIQUE
SANTO DOMINGO,2021-06-28,77,39,6,lunes,09:00:00,21:00:00,LAS HORTENSIAS 61 A,5851,"","",PHARMACYS RP,+560224750228,SANTO DOMINGO
ANTOFAGASTA,2021-06-28,12,392,3,lunes,09:00:00,21:00:00,AV. PEDRO AGUIRRE CERDA N°9630,5867,-23.57588747879987,-70.39079368254893,FARMACIA DEL DESIERTO MEF,+56552866597,ANTOFAGASTA NORTE
PUERTO VARAS,2021-06-28,313,452,13,lunes,13:00:00,22:00:00,"OTTO KLEIN DORNER S/N°, NUEVA BRAUNAU, PUERTO VARAS",5871,-41.3255893,-73.079912,FARMACIA BOTICA BRAUNAU,+56973108366,NUEVA BRAUNAU
TALCA,2021-06-28,194,213,9,lunes,09:00:00,08:59:00,"1 NORTE Nº1201, LOCAL 1241 TALCA",5875,-35.426134,-71.659828,FARMACIA VIDANUEVA,+560987360597,TALCA CENTRO
TUCAPEL,2021-06-28,248,267,10,lunes,08:00:00,23:59:00,"ARTURO PRAT 499, HUEPIL",5947,-37.242020,-71.941752,SALUD,+569993897953,HUEPIL
MOLINA,2021-06-28,181,200,9,lunes,09:00:00,23:59:00,"AVENIDA QUECHEREGUAS Nº1987, LOCAL 2 MOLINA",5982,19-292210    S-35.114141,6111955        W-76.280836,FARMACIA SALCOBRAND,+56224223300,MOLINA
OSORNO,2021-06-28,309,387,13,lunes,09:00:00,21:00:00,"LYNCH 1320, OSORNO",5985,-40.5738712,-73.1295351,FARMACIAS DR. SIMI,+56999690876,SECTOR LYNCH
MALLOA,2021-06-28,148,167,8,lunes,09:00:00,23:00:00,"PZA DE ARMAS, 119, MALLOA",6005,"","",FARMACIA MANANTIALES,+560,MALLOA
LOS ANGELES,2021-06-28,220,239,10,lunes,09:00:00,08:59:00,ALMAGRO 596,6051,-37.466377,-72.349504,CRUZ VERDE,+560226944000,LOS ANGELES - LOCALIDAD 1
VALPARAISO,2021-06-28,78,426,6,lunes,09:30:00,19:00:00,AV AGUA SANTA N°4024 LOCAL 07,6283,"","",CHILENA,+56965723862,PLACERES
COIHUECO,2021-06-28,209,228,16,lunes,08:00:00,23:59:00,"ARTURO PRAT 1570, COIHUECO",6303,-36.628138,-71.833102,FARMACIA LA BOTICA,+56920267373,COIHUECO
LIMACHE,2021-06-28,59,17,6,lunes,09:00:00,08:59:00,URMENETA 36,6339,"","",MARGA MARGA,+56985767772,LIMACHE
LOS LAGOS,2021-06-28,287,306,12,lunes,09:00:00,08:59:00,"BALMACEDA NORTE N° 25, LOS LAGOS",6370,-39.861640,-72.815805,DR. SIMI,+560,LOS LAGOS
SAN VICENTE,2021-06-28,167,186,8,lunes,09:00:00,08:59:00,GENARO LISBOA 344,6374,"","",FARMACIA O'HIGGINS,+5693718713,SAN VICENTE
VICTORIA,2021-06-28,279,298,11,lunes,09:00:00,08:59:00,GENERAL LAGOS N°  545 VICTORIA,6376,-38.234229,-72.332877,FARMACIA SALCOBRAND,+560,VICTORIA
CASABLANCA,2021-06-28,344,49,6,lunes,09:00:00,23:00:00,AV. CONSTITUCION 793 L-1,6441,-33.184098,-71.243498,MAS SALUD,+5696266 5398,CASABLANCA
PUCON,2021-06-28,271,290,11,lunes,09:00:00,08:59:00,MIGUEL ANSORENA N° 425 C LOCAL 5 PUCON,6646,-39.276581,-71.974481,FARMACIA DE TODOS E.I.R.L,+56988822413,PUCON
HUECHURABA,2021-06-28,93,112,7,lunes,09:00:00,21:00:00,"AVENIDA AMÉRICO VESPUCIO 1737 B, BE1141. INTERIOR MALL PLAZA NORTE",6652,-33.366041,-70.678872,DEL DR. SIMI,+56,HUECHURABA
CALBUCO,2021-06-28,295,314,13,lunes,09:00:00,08:59:00,ERNESTO RIQUELME 125 CALBUCO,6706,-41.7696522,-73.1280655,FARMACIA EL HERBARIO DE CALBUCO,+5665652460996,CALBUCO
CERRO NAVIA,2021-06-28,86,105,7,lunes,08:00:00,07:59:00,ESTADOS UNIDOS 1299,6714,-33.43140,-70.73772,EBEN EZER,+56,CERRO NAVIA
VILLARRICA,2021-06-28,281,450,11,lunes,09:00:00,08:59:00,GENERAL URRUTIA N° 605,6718,-39.488442,-72.158859,FARMACIA MASSALUD SPA,+56452605394,LICAN RAY
CHONCHI,2021-06-28,298,317,13,lunes,09:00:00,08:59:00,SARGENTO CANDELARIA N°371,6762,"-42.622067, -73.779608","",FARMACEUTICA CHILOE,+560,CHONCHI
